venue_name,venue_address_1,venue_address_2,venue_address_3,venue_address_4,venue_postcode,website,venue_postcode_clean,postcode_sector,postcode_clean,onspd_postcode_sector,oseast1m,osnrth1m,lat,long,lsoa11,msoa11,osward,oslaua,imd,postcode_match,has_valid_coordinates
Dish Dining Room,19 Boar Lane,Leeds,,,LS1 6EA,http://dishdining.co.uk/,LS1 6EA,LS1 6,LS1 6EA,LS1 6,430111.0,433361.0,53.795692,-1.544366,E01033016,E02006875,E05001420,E08000035,15050.0,both,True
Yum Yum,Brewery Place,Leeds,,,LS10 1NE,http://www.yumyumbrewerywharf.co.uk/,LS10 1NE,LS10 1,LS10 1NE,LS10 1,430549.0,433163.0,53.793903,-1.537741,E01033019,E02006876,E05001420,E08000035,13850.0,both,True
Thai Sabai,2 The Parade,Leeds,West Yorkshire,,LS6 3HP,http://www.thaisabaileeds.co.uk/,LS6 3HP,LS6 3,LS6 3HP,LS6 3,427693.0,436059.0,53.820075,-1.580831,E01011440,E02002373,E05001427,E08000035,17456.0,both,True
Dough Bistro,293 Spen Lane,Leeds,West Yorkshire,,LS16 5BD,http://doughleeds.com/,LS16 5BD,LS16 5,LS16 5BD,LS16 5,426207.0,437588.0,53.833893,-1.603273,E01011687,E02006852,E05001432,E08000035,23217.0,both,True
Gaucho,21-22 Park Row,Leeds,,,LS1 5JF,http://www.gauchorestaurants.com,LS1 5JF,LS1 5,LS1 5JF,LS1 5,429957.0,433731.0,53.799026,-1.546668,E01033010,E02006875,E05001420,E08000035,8358.0,both,True
The Duncan,22 Duncan Street,Leeds,,,LS1 6DL,,LS1 6DL,LS1 6,LS1 6DL,LS1 6,430287.0,433375.0,53.795808,-1.541693,E01033010,E02006875,E05001420,E08000035,8358.0,both,True
Nash's,17 Merrion Street,Leeds,,,LS2 8JE,http://www.nashsfishandchips.com,LS2 8JE,LS2 8,LS2 8JE,LS2 8,430269.0,433890.0,53.800437,-1.541916,E01033010,E02006875,E05001420,E08000035,8358.0,both,True
Frankie & Benny's - Crown Point,Crown Point Shopping Park,Leeds,,,LS10 1ET,http://www.frankieandbennys.com,LS10 1ET,LS10 1,LS10 1ET,LS10 1,430369.0,432592.0,53.788766,-1.540525,E01033016,E02006875,E05001420,E08000035,15050.0,both,True
Frankie & Benny's - Kirkstall Road,Cardigan Fields,Kirkstall Road,Leeds,,LS4 2DG,http://www.frankieandbennys.com,LS4 2DG,LS4 2,LS4 2DG,LS4 2,427533.0,434315.0,53.804409,-1.583417,E01011482,E02002385,E05001432,E08000035,6787.0,both,True
Midtown Grill,Trevelyan Square,Leeds,,,LS1 6ET,http://midtowngrill.co.uk,LS1 6ET,LS1 6,LS1 6ET,LS1 6,430191.0,433342.0,53.795517,-1.543154,E01033010,E02006875,E05001420,E08000035,8358.0,both,True
Outlaw's Yacht Club,38 New York Street,Leeds,,,LS2 7DY,http://www.outlawsyachtclub.com,LS2 7DY,LS2 7,LS2 7DY,LS2 7,430586.0,433436.0,53.796354,-1.537152,E01033011,E02006875,E05001420,E08000035,6996.0,both,True
Sesame,18 St Paul's Street,(Just of St Paul's Square),Leeds,,LS1 2LE,,LS1 2LE,LS1 2,LS1 2LE,LS1 2,429689.0,433629.0,53.798125,-1.550747,E01033008,E02006875,E05001420,E08000035,14601.0,both,True
The Sunshine Bakery,182 Harrogate Road,Chapel Allerton,Leeds,,LS7 4NZ,,LS7 4NZ,LS7 4,LS7 4NZ,LS7 4,430490.0,437263.0,53.83074,-1.538228,E01011352,E02002363,E05001419,E08000035,14332.0,both,True
Town Hall Tavern,17 Westgate,Leeds,,,LS1 2RA,http://www.townhalltavernleeds.co.uk/,LS1 2RA,LS1 2,LS1 2RA,LS1 2,429581.0,433766.0,53.799362,-1.552373,E01033008,E02006875,E05001420,E08000035,14601.0,both,True
Mango Vegetarian,12-14 Bank Street,Wetherby,Leeds,,LS22 6NQ,http://www.mangovegetarian.com,LS22 6NQ,LS22 6,LS22 6NQ,LS22 6,440380.0,448261.0,53.92891,-1.386526,E01011704,E02002331,E05001443,E08000035,17591.0,both,True
Sky Lounge,Granary Wharf,2 Wharf Approach,Leeds,,LS1 4BR,http://www.leedscitycentre.doubletree.com,LS1 4BR,LS1 4,LS1 4BR,LS1 4,429783.0,433129.0,53.793626,-1.549368,E01033016,E02006875,E05001420,E08000035,15050.0,both,True
Croft Street Fisheries,2 Croft Street,Farsley,Leeds,,LS28 5HA,http://www.croftstreetfisheries.co.uk/,LS28 5HA,LS28 5,LS28 5HA,LS28 5,421612.0,435131.0,53.812021,-1.673263,E01011598,E02002391,E05001418,E08000035,17387.0,both,True
Neon Cactus,35 Call Lane,Leeds,,,LS1 7BT,http://www.neoncactus.co.uk,LS1 7BT,LS1 7,LS1 7BT,LS1 7,430343.0,433319.0,53.795301,-1.540848,E01033011,E02006875,E05001420,E08000035,6996.0,both,True
Laynes Espresso,16 New Station Street,Leeds,,,LS1 5DL,http://www.laynesespresso.co.uk,LS1 5DL,LS1 5,LS1 5DL,LS1 5,430060.0,433315.0,53.795297,-1.545149,E01033010,E02006875,E05001420,E08000035,8358.0,both,True
Wax Bar and JukeJoint,20 New Briggate,Leeds,,,LS1 6NU,,LS1 6NU,LS1 6,LS1 6NU,LS1 6,430352.0,433839.0,53.799974,-1.540661,E01033010,E02006875,E05001420,E08000035,8358.0,both,True
The Maven Bar,First Floor,1 Call Lane,Leeds,,LS1 7DH,http://www.themavenbar.com/,LS1 7DH,LS1 7,LS1 7DH,LS1 7,430416.0,433432.0,53.796312,-1.539729,E01033011,E02006875,E05001420,E08000035,6996.0,both,True
The White Swan,Swan Street,Leeds,,,LS1 6LG,http://www.whiteswanleeds.co.uk,LS1 6LG,LS1 6,LS1 6LG,LS1 6,430185.0,433718.0,53.798896,-1.543208,E01033010,E02006875,E05001420,E08000035,8358.0,both,True
51% Bourbon Lounge,11-15 Hirst Yard,Leeds,,,LS1 6NJ,http://www.51percentbourbon.co.uk,LS1 6NJ,LS1 6,LS1 6NJ,LS1 6,430271.0,433358.0,53.795656,-1.541938,E01033010,E02006875,E05001420,E08000035,8358.0,both,True
Rivers Meet,102 Leeds Road,Methley,Leeds,,LS26 9EP,http://www.riversmeetcraftcafe.co.uk,LS26 9EP,LS26 9,LS26 9EP,LS26 9,438607.0,427224.0,53.739976,-1.41616,E01011393,E02002432,E05001431,E08000035,19787.0,both,True
Mint Cafe,33 North Lane,Headingley,Leeds,,LS6 3HW,http://www.mint-cafe.co.uk,LS6 3HW,LS6 3,LS6 3HW,LS6 3,427683.0,436041.0,53.819913,-1.580984,E01011440,E02002373,E05001427,E08000035,17456.0,both,True
Cafe Lento,21a North Lane,Headingley,Leeds,,LS6 3HW,http://www.cafelento.co.uk,LS6 3HW,LS6 3,LS6 3HW,LS6 3,427683.0,436041.0,53.819913,-1.580984,E01011440,E02002373,E05001427,E08000035,17456.0,both,True
HEART Cafe,Bennett Road,Leeds,,,LS6 3HN,http://www.heartcentre.org.uk,LS6 3HN,LS6 3,LS6 3HN,LS6 3,427846.0,436089.0,53.820336,-1.578504,E01011440,E02002373,E05001427,E08000035,17456.0,both,True
Gallery Munro House,Munro House,York Street,Leeds,,LS9 8AG,http://leedsgallery.com,LS9 8AG,LS9 8,LS9 8AG,LS9 8,430799.0,433493.0,53.796838,-1.533909,E01033011,E02006875,E05001420,E08000035,6996.0,both,True
The Hummingbird Kitchen & Bar,Stainbeck Corner,Harrogate Road,Chapel Allerton,Leeds,LS7 3PG,,LS7 3PG,LS7 3,LS7 3PG,LS7 3,430495.0,437039.0,53.828726,-1.538174,E01011352,E02002363,E05001419,E08000035,14332.0,both,True
The Shed Bar,6 Heatons Court,Leeds,,,LS1 4LJ,http://www.theshedbar.co.uk,LS1 4LJ,LS1 4,LS1 4LJ,LS1 4,430205.0,433252.0,53.794707,-1.54295,E01033016,E02006875,E05001420,E08000035,15050.0,both,True
Fazenda Rodizio Bar and Grill,"Unit B, Waterman's Place",3 Wharf Approach,Granary Wharf,Leeds,LS1 4GL,http://www.fazenda.co.uk,LS1 4GL,LS1 4,LS1 4GL,LS1 4,429824.0,433120.0,53.793542,-1.548746,E01033016,E02006875,E05001420,E08000035,15050.0,both,True
Around the World in 80 Beers,123 The Headrow,Leeds,,,LS1 5RD,http://www.atw80.com,LS1 5RD,LS1 5,LS1 5RD,LS1 5,429890.0,433772.0,53.799399,-1.547681,E01033010,E02006875,E05001420,E08000035,8358.0,both,True
The Bierkeller,123 The Headrow,Leeds,,,LS1 5RD,http://www.thebierkeller.com,LS1 5RD,LS1 5,LS1 5RD,LS1 5,429890.0,433772.0,53.799399,-1.547681,E01033010,E02006875,E05001420,E08000035,8358.0,both,True
Shooters Sports Bar,123 The Headrow,Leeds,,,LS1 5RD,,LS1 5RD,LS1 5,LS1 5RD,LS1 5,429890.0,433772.0,53.799399,-1.547681,E01033010,E02006875,E05001420,E08000035,8358.0,both,True
Bingley Arms,37 Church Lane,Bardsey,Leeds,,LS17 9DR,http://www.bingleyarms.co.uk,LS17 9DR,LS17 9,LS17 9DR,LS17 9,436324.0,442962.0,53.881586,-1.44892,E01011713,E02002335,E05001426,E08000035,27676.0,both,True
Las Iguanas,Unit 3,Cloth Hall Street,Leeds,,LS1 2HD,http://www.iguanas.co.uk,LS1 2HD,LS1 2,LS1 2HD,LS1 2,430368.0,433359.0,53.795659,-1.540465,E01033011,E02006875,E05001420,E08000035,6996.0,both,True
Miller & Carter Steakhouse,Selby Road,Garforth,Leeds,,LS25 1NB,http://www.millerandcarter.co.uk/millerandcartergarforth/,LS25 1NB,LS25 1,LS25 1NB,LS25 1,439151.0,432501.0,53.787363,-1.407246,E01011402,E02002416,E05001423,E08000035,21414.0,both,True
Out of the Woods- Water Lane,113 Water Lane,Leeds,,,LS11 5WD,http://www.outofthewoods.me.uk,LS11 5WD,LS11 5,LS11 5WD,LS11 5,429565.0,432911.0,53.791679,-1.552698,E01033032,E02002411,E05001420,E08000035,9129.0,both,True
Mojo Bar,18 Merrion Street,Leeds,,,LS1 6PQ,http://www.mojobar.co.uk,LS1 6PQ,LS1 6,LS1 6PQ,LS1 6,430389.0,433897.0,53.800493,-1.540093,E01033010,E02006875,E05001420,E08000035,8358.0,both,True
Barburrito,62 The Headrow,Leeds,,,LS1 8EQ,http://www.barburrito.co.uk,LS1 8EQ,LS1 8,LS1 8EQ,LS1 8,430120.0,433797.0,53.799626,-1.544191,E01033010,E02006875,E05001420,E08000035,8358.0,both,True
Bar 166 Bar and Bistro,166 Town Street,Horsforth,Leeds,,LS18 4AQ,http://www.bar166.co.uk,LS18 4AQ,LS18 4,LS18 4AQ,LS18 4,424034.0,438333.0,53.840694,-1.636232,E01011460,E02002357,E05001428,E08000035,17272.0,both,True
The Royal Park,Queens Road,Hyde Park,Leeds,,LS6 1NY,http://www.theroyalparkleeds.co.uk,LS6 1NY,LS6 1,LS6 1NY,LS6 1,428404.0,434899.0,53.809611,-1.570138,E01011449,E02002383,E05001427,E08000035,9356.0,both,True
Dry Dock,Woodhouse Lane,Leeds,,,LS2 3AX,,LS2 3AX,LS2 3,LS2 3AX,LS2 3,429884.0,434343.0,53.804547,-1.547722,E01033008,E02006875,E05001420,E08000035,14601.0,both,True
Jamie's Italian,35 Park Row,Leeds,,,LS1 5JL,http://www.jamieoliver.com/italian/leeds,LS1 5JL,LS1 5,LS1 5JL,LS1 5,429909.0,433550.0,53.797418,-1.547419,E01033010,E02006875,E05001420,E08000035,8358.0,both,True
Aagrah Garforth,Aberford Road,Garforth,,,LS25 2HF,http://www.aagrah.com,LS25 2HF,LS25 2,LS25 2HF,LS25 2,441683.0,433749.0,53.798383,-1.368649,E01011398,E02002406,E05001423,E08000035,26291.0,both,True
Dine in the Mansion,The Mansion,Mansion Lane,Roundhay,Leeds,LS8 2HH,http://www.dine.co.uk/venues/themansion,LS8 2HH,LS8 2,LS8 2HH,LS8 2,433004.0,438276.0,53.839708,-1.499929,E01011650,E02002349,E05001440,E08000035,21306.0,both,True
Blackhouse Restaurant and Bar,31-33 East Parade,Leeds,,,LS1 5PS,http://www.blackhouse.uk.com,LS1 5PS,LS1 5,LS1 5PS,LS1 5,429802.0,433639.0,53.798208,-1.54903,E01033010,E02006875,E05001420,E08000035,8358.0,both,True
The White House,55 Wetherby Road,Leeds,,,LS8 2JU,,LS8 2JU,LS8 2,LS8 2JU,LS8 2,432908.0,437078.0,53.82893,-1.501511,E01011643,E02002366,E05001440,E08000035,22830.0,both,True
Distrikt,7 Duncan Street,Leeds,,,LS1 6DQ,http://www.distrikt.co.uk,LS1 6DQ,LS1 6,LS1 6DQ,LS1 6,430292.0,433411.0,53.796131,-1.541614,E01033010,E02006875,E05001420,E08000035,8358.0,both,True
Kadas,3 - 5 Crown Street,Leeds,,,LS2 7DA,,LS2 7DA,LS2 7,LS2 7DA,LS2 7,430367.0,433345.0,53.795533,-1.540481,E01033011,E02006875,E05001420,E08000035,6996.0,both,True
The Rock Bar,52 Call Lane,Leeds,,,LS1 6DT,,LS1 6DT,LS1 6,LS1 6DT,LS1 6,430315.0,433324.0,53.795348,-1.541273,E01033016,E02006875,E05001420,E08000035,15050.0,both,True
The Shake Bar,28 Merrion Centre,Leeds,,,LS2 8LY,,LS2 8LY,LS2 8,LS2 8LY,LS2 8,430082.0,434032.0,53.801724,-1.544741,E01033010,E02006875,E05001420,E08000035,8358.0,both,True
Engine House Cafe,2 Foundry Square,Holbeck,Leeds,,LS11 5DL,http://www.enginehousecafe.co.uk/,LS11 5DL,LS11 5,LS11 5DL,LS11 5,429610.0,432884.0,53.791434,-1.552017,E01033032,E02002411,E05001420,E08000035,9129.0,both,True
Little Tokyo,24 Central Road,Leeds,,,LS1 6DE,,LS1 6DE,LS1 6,LS1 6DE,LS1 6,430324.0,433458.0,53.796567,-1.541127,E01033010,E02006875,E05001420,E08000035,8358.0,both,True
A Nation Of Shopkeepers,27-37 Cookridge Street,Leeds,,,LS2 3AG,http://www.anationofshopkeepers.com,LS2 3AG,LS2 3,LS2 3AG,LS2 3,429901.0,433902.0,53.800566,-1.547502,E01033010,E02006875,E05001420,E08000035,8358.0,both,True
The Fenton,161 Woodhouse Lane,Leeds,,,LS2 3ED,,LS2 3ED,LS2 3,LS2 3ED,LS2 3,429763.0,434466.0,53.805643,-1.549543,E01033005,E02002384,E05001429,E08000035,8229.0,both,True
Hyde Park Pub,2 Headingley Lane,Leeds,,,LS6 2AS,http://www.hydeparkhotelleeds.co.uk/,LS6 2AS,LS6 2,LS6 2AS,LS6 2,428922.0,435513.0,53.815101,-1.562214,E01011443,E02006861,E05001429,E08000035,12585.0,both,True
The Cardigan Arms,364 Kirkstall Road,Leeds,,,LS4 2HQ,,LS4 2HQ,LS4 2,LS4 2HQ,LS4 2,427548.0,434564.0,53.806646,-1.583167,E01011482,E02002385,E05001432,E08000035,6787.0,both,True
Victorian Tiled Hall Cafe,Leeds Art Gallery,The Headrow,Leeds,,LS1 3AA,,LS1 3AA,LS1 3,LS1 3AA,LS1 3,429859.0,433856.0,53.800155,-1.548144,E01033010,E02006875,E05001420,E08000035,8358.0,both,True
City Cafe,Granary Wharf,2 Wharf Approach,Leeds,,LS1 4BR,http://www.leedscitycentre.doubletree.com,LS1 4BR,LS1 4,LS1 4BR,LS1 4,429783.0,433129.0,53.793626,-1.549368,E01033016,E02006875,E05001420,E08000035,15050.0,both,True
Epernay,The Electric Press,12 Great George Street,Leeds,,LS1 3DW,http://www.epernaychampagnebars.com,LS1 3DW,LS1 3,LS1 3DW,LS1 3,429872.0,433942.0,53.800928,-1.547938,E01033010,E02006875,E05001420,E08000035,8358.0,both,True
The New Roscoe,Bristol Street,Leeds,,,LS7 1DH,http://www.newroscoe.co.uk,LS7 1DH,LS7 1,LS7 1DH,LS7 1,430907.0,434452.0,53.805451,-1.532173,E01033003,E02002384,E05001420,E08000035,3086.0,both,True
Santiago,1 Grand Arcade,Leeds,,,LS1 6PG,,LS1 6PG,LS1 6,LS1 6PG,LS1 6,430374.0,433857.0,53.800135,-1.540325,E01033010,E02006875,E05001420,E08000035,8358.0,both,True
The New Conservatory,Albion Place,Leeds,,,LS1 6JL,http://www.thenewconservatory-cafebar.co.uk/,LS1 6JL,LS1 6,LS1 6JL,LS1 6,430111.0,433623.0,53.798047,-1.544341,E01033010,E02006875,E05001420,E08000035,8358.0,both,True
The West Indian Centre,10 Laycock Place,Leeds,,,LS7 3JA,,LS7 3JA,LS7 3,LS7 3JA,LS7 3,430637.0,435201.0,53.812215,-1.536203,E01011361,E02002371,E05001419,E08000035,778.0,both,True
Loch Fyne,The Old Post Office,City Square,Leeds,,LS1 2ES,,LS1 2ES,LS1 2,LS1 2ES,LS1 2,429908.0,433510.0,53.797043,-1.547433,E01033010,E02006875,E05001420,E08000035,8358.0,both,True
Azucar Bar,5 Brewery Place,Leeds,,,LS10 1NE,http://www.azucarbar.co.uk,LS10 1NE,LS10 1,LS10 1NE,LS10 1,430549.0,433163.0,53.793903,-1.537741,E01033019,E02006876,E05001420,E08000035,13850.0,both,True
Ambiente Leeds,36 - 38 The Calls,Leeds,,,LS2 7EW,http://www.ambiente-popup.co.uk,LS2 7EW,LS2 7,LS2 7EW,LS2 7,430460.0,433270.0,53.794854,-1.539077,E01033011,E02006875,E05001420,E08000035,6996.0,both,True
Mumtaz Restaurant,1  Mackenzie House,Chadwick Street,Leeds,,LS10 1QD,,LS10 1QD,LS10 1,LS10 1QD,LS10 1,430797.0,432890.0,53.791419,-1.533999,E01033019,E02006876,E05001420,E08000035,13850.0,both,True
The Gatehouse at Kirkstall Abbey,Abbey Walk,Kirkstall,Leeds,,LS5 3EH,,LS5 3EH,LS5 3,LS5 3EH,LS5 3,425963.0,436287.0,53.822213,-1.607089,E01011488,E02002374,E05001432,E08000035,9025.0,both,True
The Packhorse Pub,208 Woodhouse Lane,Leeds,,,LS2 9DX,http://www.myspace.com/packhorsegigguide,LS2 9DX,LS2 9,LS2 9DX,LS2 9,429382.0,434960.0,53.810105,-1.555281,E01033005,E02002384,E05001429,E08000035,8229.0,both,True
The New Penny,51 Call Lane,Leeds,,,LS1 7BT,,LS1 7BT,LS1 7,LS1 7BT,LS1 7,430343.0,433319.0,53.795301,-1.540848,E01033011,E02006875,E05001420,E08000035,6996.0,both,True
Viaduct,11 Lower Briggate,Leeds,,,LS1 6EP,www.viaductleeds.co.uk,LS1 6EP,LS1 6,LS1 6EP,LS1 6,430213.0,433312.0,53.795246,-1.542823,E01033010,E02006875,E05001420,E08000035,8358.0,both,True
The Foundry Wine Bar,1 Saw Mill Yard,Holbeck,Leeds,,LS11 5WH,www.thefoundrywinebar.co.uk,LS11 5WH,LS11 5,LS11 5WH,LS11 5,429589.0,432862.0,53.791237,-1.552338,E01033032,E02002411,E05001420,E08000035,9129.0,both,True
Malmaison Leeds,1 Swinegate,Leeds,,,LS1 4AG,http://www.malmaison.com/locations/leeds/,LS1 4AG,LS1 4,LS1 4AG,LS1 4,430172.0,433198.0,53.794224,-1.543456,E01033016,E02006875,E05001420,E08000035,15050.0,both,True
Fuji Hiro,45 Wade Lane,Leeds,,,LS2 8NJ,,LS2 8NJ,LS2 8,LS2 8NJ,LS2 8,430176.0,434001.0,53.80144,-1.543317,E01033010,E02006875,E05001420,E08000035,8358.0,both,True
Kendell's Bistro,St. Peters Square,Leeds,,,LS9 8AH,http://www.kendellsbistro.co.uk,LS9 8AH,LS9 8,LS9 8AH,LS9 8,430843.0,433524.0,53.797114,-1.533238,E01033011,E02006875,E05001420,E08000035,6996.0,both,True
Queens Court,167-168 Lower Briggate,Leeds,,,LS1 6NA,http://www.queenscourtleeds.com/,LS1 6NA,LS1 6,LS1 6NA,LS1 6,430259.0,433302.0,53.795153,-1.542125,E01033016,E02006875,E05001420,E08000035,15050.0,both,True
Midnight Bell,101 Water Lane,Leeds,,,LS11 5QN,www.midnightbell.co.uk,LS11 5QN,LS11 5,LS11 5QN,LS11 5,429653.0,432913.0,53.791692,-1.551362,E01033032,E02002411,E05001420,E08000035,9129.0,both,True
The Reliance,76-78 North Street,Leeds,,,LS2 7PN,http://www.the-reliance.co.uk,LS2 7PN,LS2 7,LS2 7PN,LS2 7,430531.0,434025.0,53.801635,-1.537925,E01033002,E02002384,E05001420,E08000035,6371.0,both,True
Stylus,"Leeds University Union,",Lifton Place,Woodhouse Lane,,LS2 9JT,,LS2 9JT,LS2 9,LS2 9JT,LS2 9,429512.0,434722.0,53.807958,-1.553329,E01033006,E02002392,E05001429,E08000035,12030.0,both,True
Leeds University Union,"Leeds University Union,",Lifton Place,Woodhouse Lane,Leeds,LS2 9JT,http://www.leedsuniversityunion.org.uk/,LS2 9JT,LS2 9,LS2 9JT,LS2 9,429512.0,434722.0,53.807958,-1.553329,E01033006,E02002392,E05001429,E08000035,12030.0,both,True
Leeds Beckett Union,Calverley Street,Leeds,,,LS1 3HE,,LS1 3HE,LS1 3,LS1 3HE,LS1 3,429877.0,434169.0,53.802968,-1.54784,E01033010,E02006875,E05001420,E08000035,8358.0,both,True
Norman Bar,36 Call Lane,Leeds,,,LS1 6DT,http://www.normanbar.co.uk,LS1 6DT,LS1 6,LS1 6DT,LS1 6,430315.0,433324.0,53.795348,-1.541273,E01033016,E02006875,E05001420,E08000035,15050.0,both,True
Oracle Bar,3 Brewery Place,Leeds,,,LS10 1NE,www.oraclebar.com,LS10 1NE,LS10 1,LS10 1NE,LS10 1,430549.0,433163.0,53.793903,-1.537741,E01033019,E02006876,E05001420,E08000035,13850.0,both,True
Fibre,167 - 168 Lower Briggate,Leeds,,,LS1 6LY,www.barfibre.com,LS1 6LY,LS1 6,LS1 6LY,LS1 6,430249.0,433336.0,53.795459,-1.542274,E01033010,E02006875,E05001420,E08000035,8358.0,both,True
Oulton Hall and Spa,Rothwell Lane,Oulton,Leeds,,LS26 8HN,http://www.qhotels.co.uk/our-locations/oulton-hall/,LS26 8HN,LS26 8,LS26 8HN,LS26 8,435806.0,427731.0,53.744732,-1.458565,E01011635,E02002426,E05001439,E08000035,20503.0,both,True
The Claret Jug at Oulton Hall and Spa,Rothwell Lane,Oulton,Leeds,,LS26 8HN,http://www.qhotels.co.uk/our-locations/oulton-hall,LS26 8HN,LS26 8,LS26 8HN,LS26 8,435806.0,427731.0,53.744732,-1.458565,E01011635,E02002426,E05001439,E08000035,20503.0,both,True
Calverley Grill at Oulton Hall Hotel,Rothwell Lane,Oulton,Leeds,,LS26 8HN,http://www.qhotels.co.uk/our-locations/oulton-hall/,LS26 8HN,LS26 8,LS26 8HN,LS26 8,435806.0,427731.0,53.744732,-1.458565,E01011635,E02002426,E05001439,E08000035,20503.0,both,True
Milo,10-12 Call Lane,Leeds,,,LS1 6DN,,LS1 6DN,LS1 6,LS1 6DN,LS1 6,430392.0,433447.0,53.796449,-1.540092,E01033011,E02006875,E05001420,E08000035,6996.0,both,True
Mook,Hirst's Yard,City Centre,Leeds,,LS1 6NJ,,LS1 6NJ,LS1 6,LS1 6NJ,LS1 6,430271.0,433358.0,53.795656,-1.541938,E01033010,E02006875,E05001420,E08000035,8358.0,both,True
The Adelphi,1-5 Hunslet Road,Leeds,,,LS10 1JQ,,LS10 1JQ,LS10 1,LS10 1JQ,LS10 1,430326.0,433060.0,53.792974,-1.541132,E01033016,E02006875,E05001420,E08000035,15050.0,both,True
Revolution Electric Press,41 Cookridge Street,Leeds,,,LS2 3AW,http://www.revolution-bars.co.uk,LS2 3AW,LS2 3,LS2 3AW,LS2 3,429899.0,434048.0,53.801879,-1.547518,E01033010,E02006875,E05001420,E08000035,8358.0,both,True
Revolution Call Lane,48 Call Lane,Leeds,,,LS1 6DT,www.revolution-bars.co.uk,LS1 6DT,LS1 6,LS1 6DT,LS1 6,430315.0,433324.0,53.795348,-1.541273,E01033016,E02006875,E05001420,E08000035,15050.0,both,True
Granary Wharf,Granary Wharf,Leeds,,,LS1 2SP,www.granarywharf.co.uk,LS1 2SP,LS1 2,LS1 2SP,LS1 2,429561.0,433552.0,53.797456,-1.552701,E01033016,E02006875,E05001420,E08000035,15050.0,both,True
Golf Cafe Bar,Blue Granary Wharfe,1 Little Neville Street,Leeds,,LS1 4ED,http://www.golfbarleeds.co.uk/,LS1 4ED,LS1 4,LS1 4ED,LS1 4,429877.0,433132.0,53.793647,-1.54794,E01033016,E02006875,E05001420,E08000035,15050.0,both,True
Tiger Tiger,The Light,117 Albion Street,Leeds,,LS2 8DY,,LS2 8DY,LS2 8,LS2 8DY,LS2 8,430050.0,433861.0,53.800205,-1.545248,E01033010,E02006875,E05001420,E08000035,8358.0,both,True
Oporto,31-33 Call Lane,Leeds,,,LS1 7BT,www.oportobar.co.uk,LS1 7BT,LS1 7,LS1 7BT,LS1 7,430343.0,433319.0,53.795301,-1.540848,E01033011,E02006875,E05001420,E08000035,6996.0,both,True
Verve,16 Merrion Street,Leeds,,,LS1 6PQ,www.verveleeds.co.uk,LS1 6PQ,LS1 6,LS1 6PQ,LS1 6,430389.0,433897.0,53.800493,-1.540093,E01033010,E02006875,E05001420,E08000035,8358.0,both,True
Sela Bar,20 New Briggate,Leeds,,,LS1 6NU,www.mojobar.co.uk,LS1 6NU,LS1 6,LS1 6NU,LS1 6,430352.0,433839.0,53.799974,-1.540661,E01033010,E02006875,E05001420,E08000035,8358.0,both,True
Zen Rendezvous,10 The Green,Guiseley,Leeds,,LS20 9BT,www.zenrendezvous.co.uk,LS20 9BT,LS20 9,LS20 9BT,LS20 9,419359.0,441792.0,53.871977,-1.707061,E01011265,E02002338,E05001425,E08000035,22149.0,both,True
Cheerful Chilli,Yorkgate Farm,East Chevin Road,Otley,,LS21 3ED,,LS21 3ED,LS21 3,LS21 3ED,LS21 3,419900.0,445300.0,53.903485,-1.698607,E01011574,E02002333,E05001437,E08000035,18323.0,both,True
The Cross Keys,107 Water Lane,Leeds,West Yorkshire,,LS11 5WD,http://www.the-crosskeys.com,LS11 5WD,LS11 5,LS11 5WD,LS11 5,429565.0,432911.0,53.791679,-1.552698,E01033032,E02002411,E05001420,E08000035,9129.0,both,True
Duck and Drake,43 Kirkgate,Leeds,West Yorkshire,,LS2 7DR,http://www.duckndrake.co.uk/,LS2 7DR,LS2 7,LS2 7DR,LS2 7,430512.0,433415.0,53.796154,-1.538273,E01033011,E02006875,E05001420,E08000035,6996.0,both,True
Whitelocks,Turks Head Yard,Briggate,Leeds,West Yorkshire,LS1 6HB,http://www.whitelocksleeds.com,LS1 6HB,LS1 6,LS1 6HB,LS1 6,430207.0,433526.0,53.797169,-1.542893,E01033010,E02006875,E05001420,E08000035,8358.0,both,True
Gusto Restaurant & Bars,10 Greek Street,Leeds,,,LS1 5RU,http://gustorestaurants.uk.com,LS1 5RU,LS1 5,LS1 5RU,LS1 5,429887.0,433645.0,53.798273,-1.547743,E01033010,E02006875,E05001420,E08000035,8358.0,both,True
Sandinista,"5/5a Cross, Belgrave Street",Leeds,,,LS2 8JP,http://www.sandinista.co.uk/,LS2 8JP,LS2 8,LS2 8JP,LS2 8,430329.0,433943.0,53.80091,-1.541,E01033010,E02006875,E05001420,E08000035,8358.0,both,True
Sukhothai - South Parade,5 South Parade,Leeds,,,LS1 5QS,www.sukhothai.co.uk,LS1 5QS,LS1 5,LS1 5QS,LS1 5,429850.0,433720.0,53.79895,-1.548298,E01033010,E02006875,E05001420,E08000035,8358.0,both,True
Thai Edge Leeds,New Portland Place,7 Calverley Street,Leeds,,LS1 3DY,www.thaiedge.co.uk,LS1 3DY,LS1 3,LS1 3DY,LS1 3,429835.0,434078.0,53.802152,-1.548487,E01033010,E02006875,E05001420,E08000035,8358.0,both,True
Brasserie at West Park,269 Otley Road,West Park,Leeds,,LS16 5LN,http://www.brasserieatwestpark.co.uk/,LS16 5LN,LS16 5,LS16 5LN,LS16 5,426839.0,437629.0,53.83423,-1.593666,E01011685,E02006852,E05001442,E08000035,29162.0,both,True
Trio Bar & Grill,44 North Lane,Headingley,Leeds,,LS6 3HU,http://www.arcinspirations.com,LS6 3HU,LS6 3,LS6 3HU,LS6 3,427667.0,436068.0,53.820157,-1.581225,E01011435,E02002373,E05001427,E08000035,14792.0,both,True
Wagamama,31 - 32 Park Row,Leeds,,,LS1 5JD,http://www.wagamama.com,LS1 5JD,LS1 5,LS1 5JD,LS1 5,429904.0,433646.0,53.798281,-1.547485,E01033010,E02006875,E05001420,E08000035,8358.0,both,True
Diva Italiana,Unit 8-10,Booths Yard,Pudsey,Leeds,LS28 7AD,http://italiandiva.co.uk/,LS28 7AD,LS28 7,LS28 7AD,LS28 7,422362.0,433494.0,53.797292,-1.661996,E01011612,E02002408,E05001438,E08000035,7382.0,both,True
Hansa's Restaurant,72/74 North Street,Leeds,,,LS2 7PN,http://www.hansasrestaurant.com,LS2 7PN,LS2 7,LS2 7PN,LS2 7,430531.0,434025.0,53.801635,-1.537925,E01033002,E02002384,E05001420,E08000035,6371.0,both,True
The Restaurant Bar & Grill,The Old Post Office,3 City Square,Leeds,,LS1 2AN,,LS1 2AN,LS1 2,LS1 2AN,LS1 2,429912.0,433499.0,53.796944,-1.547374,E01033010,E02006875,E05001420,E08000035,8358.0,both,True
Ruchee,219 Stainbeck Road,Moortown,Leeds,,LS7 2LR,http://www.ruchee-leeds.co.uk/,LS7 2LR,LS7 2,LS7 2LR,LS7 2,430028.0,437514.0,53.833023,-1.545222,E01011507,E02002354,E05001434,E08000035,27239.0,both,True
Salute at The White Swan,Church Street,Rothwell,Leeds,,LS26 0QL,www.saluteleeds.co.uk,LS26 0QL,LS26 0,LS26 0QL,LS26 0,434298.0,428250.0,53.749498,-1.481372,E01011629,E02002427,E05001439,E08000035,14743.0,both,True
Salvo's,115 & 109 Otley Road,Headingley,Leeds,,LS6 3PX,http://www.salvos.co.uk,LS6 3PX,LS6 3,LS6 3PX,LS6 3,427675.0,436531.0,53.824318,-1.581062,E01011694,E02006852,E05001442,E08000035,26001.0,both,True
Azrams Sheesh Mahal,346-348 Kirkstall Road,Leeds,,,LS4 2DS,,LS4 2DS,LS4 2,LS4 2DS,LS4 2,427658.0,434512.0,53.806172,-1.581501,E01011483,E02002385,E05001432,E08000035,2816.0,both,True
Bibis Italianissimo,Criterion Place,Off Sovereign Street,Leeds,,LS1 4AG,www.bibisrestaurant.com,LS1 4AG,LS1 4,LS1 4AG,LS1 4,430172.0,433198.0,53.794224,-1.543456,E01033016,E02006875,E05001420,E08000035,15050.0,both,True
Brasserie Blanc,Victoria Mill,Sovereign Street,Leeds,,LS1 4BJ,www.brasserieblanc.com,LS1 4BJ,LS1 4,LS1 4BJ,LS1 4,430168.0,433128.0,53.793595,-1.543524,E01033016,E02006875,E05001420,E08000035,15050.0,both,True
Brasserie Forty 4,44 The Calls,Leeds,,,LS2 7EW,www.brasserie44.com,LS2 7EW,LS2 7,LS2 7EW,LS2 7,430460.0,433270.0,53.794854,-1.539077,E01033011,E02006875,E05001420,E08000035,6996.0,both,True
Bretts Fish Restaurant,12-14 North Lane,Headingley,Leeds,,LS6 3HE,,LS6 3HE,LS6 3,LS6 3HE,LS6 3,427794.0,436191.0,53.821272,-1.579289,E01011440,E02002373,E05001427,E08000035,17456.0,both,True
Chino Latino,Park Plaza Hotel,Boar Lane,City Square,Leeds,LS1 5NS,http://www.chinolatino.co.uk,LS1 5NS,LS1 5,LS1 5NS,LS1 5,429959.0,433417.0,53.796204,-1.546668,E01033010,E02006875,E05001420,E08000035,8358.0,both,True
It Bar Leeds,57-59 New Briggate,Leeds,,,LS2 8JD,,LS2 8JD,LS2 8,LS2 8JD,LS2 8,430292.0,433859.0,53.800157,-1.54157,E01033010,E02006875,E05001420,E08000035,8358.0,both,True
Hop Leeds,Dark Arches,Leeds,,,LS1 4BR,http://thehopleeds.co.uk/,LS1 4BR,LS1 4,LS1 4BR,LS1 4,429783.0,433129.0,53.793626,-1.549368,E01033016,E02006875,E05001420,E08000035,15050.0,both,True
Hilton Leeds City,Neville Street,Leeds,,,LS1 4BX,http://www.hilton.com,LS1 4BX,LS1 4,LS1 4BX,LS1 4,429916.0,433129.0,53.793618,-1.547349,E01033016,E02006875,E05001420,E08000035,15050.0,both,True
North Bar,24 New Briggate,Leeds,,,LS1 6NU,http://www.northbar.com,LS1 6NU,LS1 6,LS1 6NU,LS1 6,430352.0,433839.0,53.799974,-1.540661,E01033010,E02006875,E05001420,E08000035,8358.0,both,True
Aagrah Pudsey,483 Bradford Road,Pudsey,,,LS28 8ED,www.aagrah.com,LS28 8ED,LS28 8,LS28 8ED,LS28 8,420176.0,434168.0,53.803438,-1.695138,E01011597,E02002395,E05001418,E08000035,12679.0,both,True
Arts Cafe Bar & Restaurant,42 Call Lane,Leeds,,,LS1 6DT,http://www.artscafebar.com/,LS1 6DT,LS1 6,LS1 6DT,LS1 6,430315.0,433324.0,53.795348,-1.541273,E01033016,E02006875,E05001420,E08000035,15050.0,both,True
Primo Ristorante,West Point,29 Wellington Street,Leeds,,LS1 4JY,http://www.primo-ristorante.co.uk/,LS1 4JY,LS1 4,LS1 4JY,LS1 4,429524.0,433392.0,53.796004,-1.553274,E01033008,E02006875,E05001420,E08000035,14601.0,both,True
Primo's Gourmet Hot Dogs,The Concourse,Corn Exchange,Call Lane,Leeds,LS1 7BR,,LS1 7BR,LS1 7,LS1 7BR,LS1 7,430387.0,433387.0,53.79591,-1.540174,E01033011,E02006875,E05001420,E08000035,6996.0,both,True
The Arc,19 Ash Road,Headingley,,,LS6 3JJ,,LS6 3JJ,LS6 3,LS6 3JJ,LS6 3,427650.0,436142.0,53.820823,-1.581477,E01011435,E02002373,E05001427,E08000035,14792.0,both,True
Hirst's Yard,11 - 15 Hirsts Yard,Leeds,West Yorkshire,,LS1 6NJ,http://www.hirstsyard.co.uk,LS1 6NJ,LS1 6,LS1 6NJ,LS1 6,430271.0,433358.0,53.795656,-1.541938,E01033010,E02006875,E05001420,E08000035,8358.0,both,True
Duke of Wellington,Main Street,Leeds,,,LS17 9DB,http://www.thedukew1.co.uk/,LS17 9DB,LS17 9,LS17 9DB,LS17 9,436128.0,444212.0,53.892834,-1.451754,E01011708,E02002335,E05001426,E08000035,22245.0,both,True
Lazy Lounge,Westpoint,Leeds,,,LS1 4JY,http://lazy-lounge.com/,LS1 4JY,LS1 4,LS1 4JY,LS1 4,429524.0,433392.0,53.796004,-1.553274,E01033008,E02006875,E05001420,E08000035,14601.0,both,True
Miller and Carter Steakhouse,56-58 The Headrow,Leeds,,,LS1 8TL,http://www.millerandcarter.co.uk/millerandcarterleedslight/,LS1 8TL,LS1 8,LS1 8TL,LS1 8,430022.0,433845.0,53.800047,-1.54567,E01033010,E02006875,E05001420,E08000035,8358.0,both,True
Viva,9-11 Bridge End,Leeds,,,LS1 7HG,http://www.vivaitalianrestaurant.com,LS1 7HG,LS1 7,LS1 7HG,LS1 7,430277.0,433201.0,53.794244,-1.541862,E01033011,E02006875,E05001420,E08000035,6996.0,both,True
Graveley Fisheries,12-14 George Street,Leeds,,,LS2 7HY,,LS2 7HY,LS2 7,LS2 7HY,LS2 7,430487.0,433578.0,53.797621,-1.538637,E01033010,E02006875,E05001420,E08000035,8358.0,both,True
Global Tribe Cafe,18 Swan Street,Leeds,,,LS1 6LG,http://globaltribecafe.com/,LS1 6LG,LS1 6,LS1 6LG,LS1 6,430185.0,433718.0,53.798896,-1.543208,E01033010,E02006875,E05001420,E08000035,8358.0,both,True
Sukhothai - Headingley,St Annes Road,Headingley,,,LS6 3NX,http://sukhothai.co.uk/restaurants/leeds-headingley/,LS6 3NX,LS6 3,LS6 3NX,LS6 3,427615.0,436372.0,53.822892,-1.581988,E01011694,E02006852,E05001442,E08000035,26001.0,both,True
Opposite Cafe- Victoria Quarter,Victoria Quarter,Queen Victoria Street,,,LS1 6AZ,http://www.oppositecafe.co.uk/,LS1 6AZ,LS1 6,LS1 6AZ,LS1 6,430323.0,433606.0,53.797882,-1.541124,E01033010,E02006875,E05001420,E08000035,8358.0,both,True
Olive Tree Greek Restaurant,Oaklands,Rodley Lane,Rodley,,LS13 1NG,http://www.olivetreegreekrestaurant.co.uk,LS13 1NG,LS13 1,LS13 1NG,LS13 1,421786.0,436590.0,53.825127,-1.670518,E01011588,E02002368,E05001418,E08000035,22188.0,both,True
Mr Foley's Cask Ale House,159 The Headrow,Leeds,,,LS1 5RG,,LS1 5RG,LS1 5,LS1 5RG,LS1 5,429810.0,433776.0,53.799439,-1.548895,E01033008,E02006875,E05001420,E08000035,14601.0,both,True
Hayley and Clifford Delicatessen,43 Street Lane,Leeds,,,LS8 1AP,http://www.haleyandclifford.co.uk,LS8 1AP,LS8 1,LS8 1AP,LS8 1,432376.0,438770.0,53.844187,-1.50942,E01011653,E02002349,E05001440,E08000035,24584.0,both,True
Stew and Oyster Bar,36-38 The Calls,Leeds,,,LS2 7EW,,LS2 7EW,LS2 7,LS2 7EW,LS2 7,430460.0,433270.0,53.794854,-1.539077,E01033011,E02006875,E05001420,E08000035,6996.0,both,True
Patisserie Valerie,50a Albion Street,Leeds,,,LS1 6AD,,LS1 6AD,LS1 6,LS1 6AD,LS1 6,430071.0,433649.0,53.798283,-1.544945,E01033010,E02006875,E05001420,E08000035,8358.0,both,True
Library Pub,229 Woodhouse Lane,,,,LS2 3AP,,LS2 3AP,LS2 3,LS2 3AP,LS2 3,429171.0,435147.0,53.811813,-1.558472,E01033005,E02002384,E05001429,E08000035,8229.0,both,True
Aagrah Leeds,St Peter's Square,Quarry Hill,Leeds,,LS9 8AH,http://www.aagrah.com/restaurants/leeds-city/,LS9 8AH,LS9 8,LS9 8AH,LS9 8,430843.0,433524.0,53.797114,-1.533238,E01033011,E02006875,E05001420,E08000035,6996.0,both,True
Roundhay Fox,Prince Avenue,Roundhay,,,LS8 2EP,http://www.vintageinn.co.uk/theroundhayfoxleeds/,LS8 2EP,LS8 2,LS8 2EP,LS8 2,432738.0,438260.0,53.839564,-1.503968,E01011650,E02002349,E05001440,E08000035,21306.0,both,True
Bella Italia,145 Briggate,Leeds,,,LS1 6BR,http://www.bellaitalia.co.uk/,LS1 6BR,LS1 6,LS1 6BR,LS1 6,430257.0,433449.0,53.796475,-1.542141,E01033010,E02006875,E05001420,E08000035,8358.0,both,True
"The Fishermans Wife, Headingley",9 Weetwood Lane,Headingley,,,LS16 5LT,http://www.thefishermanswife.co.uk,LS16 5LT,LS16 5,LS16 5LT,LS16 5,427573.0,436923.0,53.827862,-1.582581,E01011690,E02006852,E05001442,E08000035,23418.0,both,True
Chaophraya,20A First Floor,Blayds Court,Swinegate,Leeds,LS1 4AG,http://www.chaophraya.co.uk,LS1 4AG,LS1 4,LS1 4AG,LS1 4,430172.0,433198.0,53.794224,-1.543456,E01033016,E02006875,E05001420,E08000035,15050.0,both,True
Sukhothai - Chapel Allerton,8 Regent Street,Chapel Allerton,,,LS7 4PE,http://www.sukhothai.co.uk/,LS7 4PE,LS7 4,LS7 4PE,LS7 4,430543.0,437180.0,53.829991,-1.537431,E01011352,E02002363,E05001419,E08000035,14332.0,both,True
Comptoir Libanais,Level 4 Trinity Albion Street,Leeds,,,LS1 5AY,http://www.comptoirlibanais.com,LS1 5AY,LS1 5,LS1 5AY,LS1 5,430036.0,433504.0,53.796998,-1.545495,E01033010,E02006875,E05001420,E08000035,8358.0,both,True
200 Degrees Coffee,200 Degrees Coffee,31 Bond Street,Leeds,,LS1 5BQ,http://200degs.com/,LS1 5BQ,LS1 5,LS1 5BQ,LS1 5,429992.0,433584.0,53.797703,-1.546151,E01033010,E02006875,E05001420,E08000035,8358.0,both,True
Gino D’Acampo My Restaurant,Gino D’Acampo My Restaurant,11/12 Park Row,Leeds,,LS1 5HD,http://ginodacamporestaurants.com/myrestaurant/myrestaurants/leeds/,LS1 5HD,LS1 5,LS1 5HD,LS1 5,429951.0,433616.0,53.798009,-1.546775,E01033010,E02006875,E05001420,E08000035,8358.0,both,True
Olive & Rye,Queens Arcade,Leeds,,,LS1 6LF,http://www.oliverye.co.uk,LS1 6LF,LS1 6,LS1 6LF,LS1 6,430215.0,433664.0,53.798425,-1.542762,E01033010,E02006875,E05001420,E08000035,8358.0,both,True
Thewlis Cocktail Lounge,18 Park Row,Leeds,,,LS1 5JA,http://www.thewliscocktails.co.uk,LS1 5JA,LS1 5,LS1 5JA,LS1 5,429949.0,433711.0,53.798847,-1.546791,E01033010,E02006875,E05001420,E08000035,8358.0,both,True
Le Pain Quotidien,"16, Leeds Victoria Gate Arcade",Harewood Street,Leeds,,LS2 7AR,http://www.lepainquotidien.co.uk,LS2 7AR,LS2 7,LS2 7AR,LS2 7,430501.0,433644.0,53.798229,-1.538422,E01033010,E02006875,E05001420,E08000035,8358.0,both,True
Byron,9a Lands Lane,Leeds,,,LS1 6AW,,LS1 6AW,LS1 6,LS1 6AW,LS1 6,430141.0,433581.0,53.797668,-1.543889,E01033010,E02006875,E05001420,E08000035,8358.0,both,True
Stockdales of Yorkshire,8 South Parade,Leeds,,,LS1 5QX,http://stockdales-restaurant.com/,LS1 5QX,LS1 5,LS1 5QX,LS1 5,429870.0,433752.0,53.79922,-1.547987,E01033010,E02006875,E05001420,E08000035,8358.0,both,True
Mod Pizza,Unit 11a Cardigan Fields Leisure Park,Kirkstall Road,Leeds,,LS4 2DG,http://www.modpizza.co.uk,LS4 2DG,LS4 2,LS4 2DG,LS4 2,427533.0,434315.0,53.804409,-1.583417,E01011482,E02002385,E05001432,E08000035,6787.0,both,True
Slate NQ,Merrion Street,Leeds,,,LS2 8JE,http://www.slatenq.co.uk,LS2 8JE,LS2 8,LS2 8JE,LS2 8,430269.0,433890.0,53.800437,-1.541916,E01033010,E02006875,E05001420,E08000035,8358.0,both,True
The Alchemist Greek Street,The Alchemist Greek Street,Yorkshire House,Greek Street,Leeds,LS1 5SH,http://thealchemist.uk.com/venues/greek-street-leeds/,LS1 5SH,LS1 5,LS1 5SH,LS1 5,429835.0,433674.0,53.798521,-1.548526,E01033010,E02006875,E05001420,E08000035,8358.0,both,True
The East Village,The East Village,47-49 Brudenell Grove,Leeds,,LS6 1HR,http://www.theeastvillage.bar,LS6 1HR,LS6 1,LS6 1HR,LS6 1,428561.0,435148.0,53.81184,-1.567731,E01011444,E02006861,E05001429,E08000035,9196.0,both,True
Sociable Folk,10 Wellington Place,Leeds,,,LS1 4AP,http://www.sociablefolk.co.uk,LS1 4AP,LS1 4,LS1 4AP,LS1 4,429309.0,433384.0,53.79596,-1.556543,E01033015,E02006875,E05001420,E08000035,15267.0,both,True
Revolución de Cuba,64-68 Call Lane,Leeds,,,LS1 6DT,http://www.revoluciondecuba.com/bar/leeds/,LS1 6DT,LS1 6,LS1 6DT,LS1 6,430315.0,433324.0,53.795348,-1.541273,E01033016,E02006875,E05001420,E08000035,15050.0,both,True
Tharavadu,7/8 Mill Hill,Leeds,,,LS1 5DQ,http://www.tharavadurestaurants.com,LS1 5DQ,LS1 5,LS1 5DQ,LS1 5,430037.0,433319.0,53.795319,-1.545494,E01033010,E02006875,E05001420,E08000035,8358.0,both,True
Smoke Barbecue Leeds,Merrion Centre,"Leeds, Unit 6",11 Merrion Way,Leeds,LS2 8BT,http://www.smokebbq.co.uk,LS2 8BT,LS2 8,LS2 8BT,LS2 8,430153.0,434103.0,53.802358,-1.543656,E01033010,E02006875,E05001420,E08000035,8358.0,both,True
MR PITTA,Commercial Street,Leeds,,,LS1 6AL,http://www.mrpitta.co.uk,LS1 6AL,LS1 6,LS1 6AL,LS1 6,430167.0,433561.0,53.797486,-1.543497,E01033010,E02006875,E05001420,E08000035,8358.0,both,True
Iberica Leeds,Hepper House,17A East Parade,Leeds,,LS1 2BH,http://www.ibericarestaurants.com,LS1 2BH,LS1 2,LS1 2BH,LS1 2,429768.0,433744.0,53.79917,-1.549541,E01033008,E02006875,E05001420,E08000035,14601.0,both,True
Cabana Brasilian Barbecue,Unit 4.02,430 Trinity Leeds,Albion Street,Leeds,LS1 5AT,http://www.cabana-brasil.com/,LS1 5AT,LS1 5,LS1 5AT,LS1 5,430139.0,433460.0,53.796596,-1.543936,E01033010,E02006875,E05001420,E08000035,8358.0,both,True
Candlebar,CANDLEBAR,Candle House,Granary Wharf,Leeds,LS1 4GJ,http://www.candlebarleeds.co.uk,LS1 4GJ,LS1 4,LS1 4GJ,LS1 4,429686.0,433093.0,53.793308,-1.550844,E01033015,E02006875,E05001420,E08000035,15267.0,both,True
Be At One Leeds,Be At One Cocktail Bar,Millennium Square,Great George Street,Leeds,LS2 3AD,http://www.beatone.co.uk,LS2 3AD,LS2 3,LS2 3AD,LS2 3,429858.0,433971.0,53.801189,-1.548148,E01033010,E02006875,E05001420,E08000035,8358.0,both,True
Bang Wok,Bang Wok,Arch 1,Sovereign Place,Leeds,LS1 4SP,http://www.bangwok.com,LS1 4SP,LS1 4,LS1 4SP,LS1 4,429986.0,433191.0,53.794171,-1.54628,E01033016,E02006875,E05001420,E08000035,15050.0,both,True
Pieminister,Pieminister,15-17 Duncan Street,Leeds,,LS1 6DQ,http://www.pieminister.co.uk/restaurants/leeds/,LS1 6DQ,LS1 6,LS1 6DQ,LS1 6,430292.0,433411.0,53.796131,-1.541614,E01033010,E02006875,E05001420,E08000035,8358.0,both,True
The Engine Shed,The Engine Shed,York Road,Wetherby,,LS22 7SU,http://www.engineshedwetherby.co.uk,LS22 7SU,LS22 7,LS22 7SU,LS22 7,440751.0,448747.0,53.933266,-1.380817,E01011700,E02002331,E05001443,E08000035,23310.0,both,True
MEATliquor Leeds,1 Bank St. North,Trinity Centre,Behind Victoria’s Secret,Leeds,LS1 5AT,http://www.meatliquor.com/leeds,LS1 5AT,LS1 5,LS1 5AT,LS1 5,430139.0,433460.0,53.796596,-1.543936,E01033010,E02006875,E05001420,E08000035,8358.0,both,True
Bar Soba,9A Merrion Street,Leeds,,,LS1 6PQ,http://www.barsoba.co.uk/,LS1 6PQ,LS1 6,LS1 6PQ,LS1 6,430389.0,433897.0,53.800493,-1.540093,E01033010,E02006875,E05001420,E08000035,8358.0,both,True
Mill Kitchen,1 The Old Combing,Sunny Bank Mills,83-85 Town Street,"Farsley, Pudsey",LS28 5UJ,http://www.millkitchen.co.uk,LS28 5UJ,LS28 5,LS28 5UJ,LS28 5,421729.0,435359.0,53.814065,-1.67147,E01011592,E02002368,E05001418,E08000035,21180.0,both,True
Bilbao Bar,Arch U,Granary Wharf,Leeds,,LS1 4BR,http://www.bilbaobar.co.uk,LS1 4BR,LS1 4,LS1 4BR,LS1 4,429783.0,433129.0,53.793626,-1.549368,E01033016,E02006875,E05001420,E08000035,15050.0,both,True
Watermill  Restaurant at Milford Hotel,Great North Road,Peckfield,,,LS25 5LQ,www.milfordhotel.co.uk,LS25 5LQ,LS25 5,LS25 5LQ,LS25 5,445710.0,431523.0,53.77804,-1.307845,E01027898,E02005812,E05010058,E07000169,28902.0,both,True
La Rambla –Tapas & Wine,La Rambla –Tapas & Wine,9 East Parade,Leeds,,LS1 2AJ,http://www.laramblatapas.co.uk,LS1 2AJ,LS1 2,LS1 2AJ,LS1 2,429765.0,433678.0,53.798561,-1.549588,E01033008,E02006875,E05001420,E08000035,14601.0,both,True
Manahatta,11 Merrion Street,Leeds,,,LS1 6PG,http://www.arcinspirations.com,LS1 6PG,LS1 6,LS1 6PG,LS1 6,430374.0,433857.0,53.800135,-1.540325,E01033010,E02006875,E05001420,E08000035,8358.0,both,True
Black Swan,37 Call Lane,Leeds,,,LS1 7BT,http://www.blackswanleeds.co.uk/,LS1 7BT,LS1 7,LS1 7BT,LS1 7,430343.0,433319.0,53.795301,-1.540848,E01033011,E02006875,E05001420,E08000035,6996.0,both,True
Ho's,115 Vicar Lane,Leeds,,,LS1 6PJ,http://www.tripadvisor.co.uk/Restaurant_Review-g186411-d1877193-Reviews-Ho_s-Leeds_West_Yorkshire_England.html,LS1 6PJ,LS1 6,LS1 6PJ,LS1 6,430407.0,433829.0,53.799881,-1.539827,E01033010,E02006875,E05001420,E08000035,8358.0,both,True
Maxi's Leeds,6 Bingley Street,Leeds,,,LS3 1LX,http://www.maxi-s.co.uk/,LS3 1LX,LS3 1,LS3 1LX,LS3 1,428928.0,433734.0,53.799111,-1.56229,E01011678,E02002392,E05001420,E08000035,12833.0,both,True
Red Chilli Restaurant,6 Great George Street,Leeds,,,LS1 3DW,http://redchillirestaurant.co.uk/leeds/,LS1 3DW,LS1 3,LS1 3DW,LS1 3,429872.0,433942.0,53.800928,-1.547938,E01033010,E02006875,E05001420,E08000035,8358.0,both,True
Pintura,Pintura Basque Kitchen & Bar,Unit 2.36,1 Trinity Street,Leeds,LS1 5ER,http://www.pinturakitchen.co.uk/,LS1 5ER,LS1 5,LS1 5ER,LS1 5,429996.0,433430.0,53.796319,-1.546105,E01033010,E02006875,E05001420,E08000035,8358.0,both,True
Roland's,39 Call Lane,Leeds,,,LS1 7BT,https://twitter.com/RolandsLeeds,LS1 7BT,LS1 7,LS1 7BT,LS1 7,430343.0,433319.0,53.795301,-1.540848,E01033011,E02006875,E05001420,E08000035,6996.0,both,True
The Riverside,1 Whitehall Riverside,Leeds,,,LS1 4BN,http://www.theriversideleeds.co.uk/,LS1 4BN,LS1 4,LS1 4BN,LS1 4,429495.0,433252.0,53.794748,-1.553728,E01033015,E02006875,E05001420,E08000035,15267.0,both,True
Marvin's Pizza Parlour,Arena Quarter,Merrion Way,Leeds,West Yorkshire,LS2 8BT,,LS2 8BT,LS2 8,LS2 8BT,LS2 8,430153.0,434103.0,53.802358,-1.543656,E01033010,E02006875,E05001420,E08000035,8358.0,both,True
The Salty Cow,Commerical Street,Leeds,,,LS1 6EY,https://twitter.com/ThesaltyCow,LS1 6EY,LS1 6,LS1 6EY,LS1 6,430124.0,433533.0,53.797237,-1.544152,E01033010,E02006875,E05001420,E08000035,8358.0,both,True
The Black Prince,40 Boar Lane,Leeds,,,LS1 5DA,,LS1 5DA,LS1 5,LS1 5DA,LS1 5,429994.0,433369.0,53.795771,-1.546141,E01033010,E02006875,E05001420,E08000035,8358.0,both,True
The Brotherhood of Pursuits and Pastimes,56-58 New Briggate,Leeds,,,LS1 6NU,http://www.thisisthebrotherhood.com/,LS1 6NU,LS1 6,LS1 6NU,LS1 6,430352.0,433839.0,53.799974,-1.540661,E01033010,E02006875,E05001420,E08000035,8358.0,both,True
Bundobust,6 Mill Hill,Leeds,,,LS1 5DQ,http://bundobust.com/,LS1 5DQ,LS1 5,LS1 5DQ,LS1 5,430037.0,433319.0,53.795319,-1.545494,E01033010,E02006875,E05001420,E08000035,8358.0,both,True
Shears Yard,11-15 Wharf Street,The Calls,Leeds,,LS2 7EH,http://www.shearsyard.com,LS2 7EH,LS2 7,LS2 7EH,LS2 7,430426.0,433311.0,53.795224,-1.539589,E01033011,E02006875,E05001420,E08000035,6996.0,both,True
Blind Tyger,5 1/2 Cross Belgrave Street,Leeds,,,LS2 8JP,http://www.blindtyger.co.uk,LS2 8JP,LS2 8,LS2 8JP,LS2 8,430329.0,433943.0,53.80091,-1.541,E01033010,E02006875,E05001420,E08000035,8358.0,both,True
Just Grand! Vintage Tearoom,8-9 Grand Arcade,Vicar Lane,Leeds,,LS1 6PG,http://www.just-grand.co.uk,LS1 6PG,LS1 6,LS1 6PG,LS1 6,430374.0,433857.0,53.800135,-1.540325,E01033010,E02006875,E05001420,E08000035,8358.0,both,True
The Atlas Pub,Atlas House,31 King Street,Leeds,,LS1 2HL,http://www.atlaspubleeds.com,LS1 2HL,LS1 2,LS1 2HL,LS1 2,429727.0,433564.0,53.797554,-1.55018,E01033008,E02006875,E05001420,E08000035,14601.0,both,True
The Man Behind The Curtain,68-78 Vicar Lane,Leeds,,,LS1 7JH,http://www.themanbehindthecurtain.co.uk/,LS1 7JH,LS1 7,LS1 7JH,LS1 7,430431.0,433660.0,53.798377,-1.539483,E01033010,E02006875,E05001420,E08000035,8358.0,both,True
Crowd of Favours,Harper Street,Leeds,,,LS2 7EA,http://www.crowdoffavours.co.uk/,LS2 7EA,LS2 7,LS2 7EA,LS2 7,430551.0,433419.0,53.796188,-1.537681,E01033011,E02006875,E05001420,E08000035,6996.0,both,True
Roots and Fruits,10-11 Grand Arcade,Leeds,,,LS1 6PG,http://www.rootsandfruits.net,LS1 6PG,LS1 6,LS1 6PG,LS1 6,430374.0,433857.0,53.800135,-1.540325,E01033010,E02006875,E05001420,E08000035,8358.0,both,True
The Grove Inn,Back Row,Leeds,,,LS11 5PL,,LS11 5PL,LS11 5,LS11 5PL,LS11 5,429879.0,432834.0,53.790969,-1.547939,E01033016,E02006875,E05001420,E08000035,15050.0,both,True
The Decanter,17 Park Row,Leeds,,,LS1 5JQ,http://www.thedecanter.co.uk,LS1 5JQ,LS1 5,LS1 5JQ,LS1 5,429952.0,433700.0,53.798748,-1.546747,E01033010,E02006875,E05001420,E08000035,8358.0,both,True
The Original Oak,2 Otley Road,Headingley,Leeds,,LS6 2DG,http://www.theoriginaloakleeds.co.uk,LS6 2DG,LS6 2,LS6 2DG,LS6 2,428029.0,436022.0,53.819724,-1.575731,E01011440,E02002373,E05001427,E08000035,17456.0,both,True
The Mustard Pot,20 Stainbeck Lane,Chapel Allerton,Leeds,,LS7 3QY,http://www.themustardpot.com,LS7 3QY,LS7 3,LS7 3QY,LS7 3,430418.0,437077.0,53.829072,-1.53934,E01011352,E02002363,E05001419,E08000035,14332.0,both,True
Tortilla,Trinity Kitchen,Trinity Leeds,,,LS1 5AT,http://trinityleeds.com/shops/tortilla,LS1 5AT,LS1 5,LS1 5AT,LS1 5,430139.0,433460.0,53.796596,-1.543936,E01033010,E02006875,E05001420,E08000035,8358.0,both,True
Le Chalet,31-32 Park Row,Leeds,,,LS1 5JD,http://www.le-chalet.co.uk,LS1 5JD,LS1 5,LS1 5JD,LS1 5,429904.0,433646.0,53.798281,-1.547485,E01033010,E02006875,E05001420,E08000035,8358.0,both,True
Aire Bar,32 The Calls,,Leeds,,LS2 7EW,http://www.airebar.co.uk/,LS2 7EW,LS2 7,LS2 7EW,LS2 7,430460.0,433270.0,53.794854,-1.539077,E01033011,E02006875,E05001420,E08000035,6996.0,both,True
All Bar One Greek Street,27 East Parade,Leeds,,,LS1 5BN,http://www.allbarone.co.uk/all-bar-one-greek-street-leeds/,LS1 5BN,LS1 5,LS1 5BN,LS1 5,429798.0,433674.0,53.798523,-1.549087,E01033010,E02006875,E05001420,E08000035,8358.0,both,True
Baa Bar Millennium Square,43-51 Cookridge Street,Leeds,,,LS2 3AW,http://www.baabar.co.uk,LS2 3AW,LS2 3,LS2 3AW,LS2 3,429899.0,434048.0,53.801879,-1.547518,E01033010,E02006875,E05001420,E08000035,8358.0,both,True
Wasabi,Trinity Leeds,Leeds,,,LS1 5AT,http://www.wasabi.uk.com,LS1 5AT,LS1 5,LS1 5AT,LS1 5,430139.0,433460.0,53.796596,-1.543936,E01033010,E02006875,E05001420,E08000035,8358.0,both,True
Belgrave Music Hall and Canteen,1-1A Cross Belgrave Street,Leeds,,,LS2 8JP,http://www.belgravemusichall.com,LS2 8JP,LS2 8,LS2 8JP,LS2 8,430329.0,433943.0,53.80091,-1.541,E01033010,E02006875,E05001420,E08000035,8358.0,both,True
360 Champagne & Cocktails,Trinity Kitchen,Trinity Leeds,,,LS1 5AT,http://trinityleeds.com/shops/360-champagne-cocktails,LS1 5AT,LS1 5,LS1 5AT,LS1 5,430139.0,433460.0,53.796596,-1.543936,E01033010,E02006875,E05001420,E08000035,8358.0,both,True
Chicago Rib Shack,Trinity Kitchen,Trinity Leeds,,,LS1 5AT,http://trinityleeds.com/shops/chicago-rib-shack,LS1 5AT,LS1 5,LS1 5AT,LS1 5,430139.0,433460.0,53.796596,-1.543936,E01033010,E02006875,E05001420,E08000035,8358.0,both,True
Chip + Fish,Trinity Kitchen,Trinity Leeds,,,LS1 5AT,http://trinityleeds.com/shops/chip-fish,LS1 5AT,LS1 5,LS1 5AT,LS1 5,430139.0,433460.0,53.796596,-1.543936,E01033010,E02006875,E05001420,E08000035,8358.0,both,True
Pho,Trinity Kitchen,Trinity Leeds,,,LS1 5AT,http://www.phocafe.co.uk/locations/leeds/,LS1 5AT,LS1 5,LS1 5AT,LS1 5,430139.0,433460.0,53.796596,-1.543936,E01033010,E02006875,E05001420,E08000035,8358.0,both,True
PizzaLuxe,Trinity Kitchen,Trinity Leeds,,,LS1 5AT,http://trinityleeds.com/shops/pizzaluxe,LS1 5AT,LS1 5,LS1 5AT,LS1 5,430139.0,433460.0,53.796596,-1.543936,E01033010,E02006875,E05001420,E08000035,8358.0,both,True
Kobe,106-108 New Road Side,Horsforth,Leeds,,LS18 4QB,http://www.arcinspirations.com,LS18 4QB,LS18 4,LS18 4QB,LS18 4,423653.0,437395.0,53.832281,-1.642094,E01011454,E02002356,E05001428,E08000035,31557.0,both,True
The Pit,9 Merrion Street,Leeds,,,LS1 6PQ,http://www.arcinspirations.com,LS1 6PQ,LS1 6,LS1 6PQ,LS1 6,430389.0,433897.0,53.800493,-1.540093,E01033010,E02006875,E05001420,E08000035,8358.0,both,True
Roast + Conch,55 Boar Lane,Leeds,,,LS1 5EL,http://www.hotelchocolat.com/uk/restaurants/locations/roast-and-conch,LS1 5EL,LS1 5,LS1 5EL,LS1 5,430025.0,433388.0,53.79594,-1.545669,E01033010,E02006875,E05001420,E08000035,8358.0,both,True
Barburrito,61 Boar Lane,Leeds,,,LS1 6HW,http://www.barburrito.co.uk/,LS1 6HW,LS1 6,LS1 6HW,LS1 6,430129.0,433401.0,53.79605,-1.544089,E01033010,E02006875,E05001420,E08000035,8358.0,both,True
All Bar One Millennium,Electric Press,Millennium Square,Leeds,,LS2 3AD,http://www.allbarone.co.uk/all-bar-one-millennium-square-leeds,LS2 3AD,LS2 3,LS2 3AD,LS2 3,429858.0,433971.0,53.801189,-1.548148,E01033010,E02006875,E05001420,E08000035,8358.0,both,True
Korks Wine Bar & Brasserie,40 Bondgate,Otley,,,LS21 1AD,http://www.korks.co.uk,LS21 1AD,LS21 1,LS21 1AD,LS21 1,420359.0,445366.0,53.904061,-1.691617,E01011569,E02002333,E05001437,E08000035,21543.0,both,True
Yo! Sushi,419 Trinity Leeds,Albion Street,Leeds,,LS1 5AY,http://www.yosushi.com/,LS1 5AY,LS1 5,LS1 5AY,LS1 5,430036.0,433504.0,53.796998,-1.545495,E01033010,E02006875,E05001420,E08000035,8358.0,both,True
Wagamama Restaurant,Upper dining terrace,Trinity walk,Trinity leeds shopping centre,Leeds,LS1 5AY,http://www.wagamama.com/,LS1 5AY,LS1 5,LS1 5AY,LS1 5,430036.0,433504.0,53.796998,-1.545495,E01033010,E02006875,E05001420,E08000035,8358.0,both,True
The Packhorse,Packhorse Yard,Briggate,Leeds,,LS1 6AT,,LS1 6AT,LS1 6,LS1 6AT,LS1 6,430214.0,433568.0,53.797547,-1.542782,E01033010,E02006875,E05001420,E08000035,8358.0,both,True
Mrs Atha's,10 Central Road,Leeds,,,LS1 6DE,http://mrsathasleeds.com/,LS1 6DE,LS1 6,LS1 6DE,LS1 6,430324.0,433458.0,53.796567,-1.541127,E01033010,E02006875,E05001420,E08000035,8358.0,both,True
LS6 Cafe,16 Headingley Lane,Leeds,,,LS6 2AS,http://www.ls6cafe.com/,LS6 2AS,LS6 2,LS6 2AS,LS6 2,428922.0,435513.0,53.815101,-1.562214,E01011443,E02006861,E05001429,E08000035,12585.0,both,True
The Wrens Hotel,61A New Briggate,Leeds,,,LS2 8JD,http://www.thewrenshotel.co.uk/,LS2 8JD,LS2 8,LS2 8JD,LS2 8,430292.0,433859.0,53.800157,-1.54157,E01033010,E02006875,E05001420,E08000035,8358.0,both,True
Holbeck WMC,Holbeck WMC,Jenkinson Lawn,Holbeck,,LS11 9QX,http://holbeckwmc.moonfruit.com/,LS11 9QX,LS11 9,LS11 9QX,LS11 9,429400.0,432148.0,53.78483,-1.555275,E01033032,E02002411,E05001415,E08000035,9129.0,both,True
The Alchemist,Level 1,Trinity Leeds,,,LS1 6HW,http://www.thealchemist.uk.com,LS1 6HW,LS1 6,LS1 6HW,LS1 6,430129.0,433401.0,53.79605,-1.544089,E01033010,E02006875,E05001420,E08000035,8358.0,both,True
The Botanist,Trinity,Leeds,,,LS1 6HW,http://www.thebotanist.uk.com,LS1 6HW,LS1 6,LS1 6HW,LS1 6,430129.0,433401.0,53.79605,-1.544089,E01033010,E02006875,E05001420,E08000035,8358.0,both,True
Carluccios,Trinity Leeds,Albion Street,Leeds,,LS1 5AT,http://www.carluccios.com,LS1 5AT,LS1 5,LS1 5AT,LS1 5,430139.0,433460.0,53.796596,-1.543936,E01033010,E02006875,E05001420,E08000035,8358.0,both,True
Handmade Burger Co,Trinity Leeds,Trinity East,Leeds,,LS1 5ER,http://handmadeburger.co.uk/,LS1 5ER,LS1 5,LS1 5ER,LS1 5,429996.0,433430.0,53.796319,-1.546105,E01033010,E02006875,E05001420,E08000035,8358.0,both,True
Giraffe,414 Trinity Leeds,Albion Street,Leeds,,LS1 5AY,http://www.giraffe.net/,LS1 5AY,LS1 5,LS1 5AY,LS1 5,430036.0,433504.0,53.796998,-1.545495,E01033010,E02006875,E05001420,E08000035,8358.0,both,True
The Fleece,Westgate,Otley,West Yorkshire,,LS21 3DT,http://www.otleypubclub.co.uk/otley-pubs-present/the-fleece,LS21 3DT,LS21 3,LS21 3DT,LS21 3,419909.0,445394.0,53.90433,-1.698464,E01011569,E02002333,E05001437,E08000035,21543.0,both,True
Greedy Pig,"58, North Street",Leeds,,,LS2 7PN,,LS2 7PN,LS2 7,LS2 7PN,LS2 7,430531.0,434025.0,53.801635,-1.537925,E01033002,E02002384,E05001420,E08000035,6371.0,both,True
David Street Cafe,109 Water Lane,Leeds,,,LS11 5WD,,LS11 5WD,LS11 5,LS11 5WD,LS11 5,429565.0,432911.0,53.791679,-1.552698,E01033032,E02002411,E05001420,E08000035,9129.0,both,True
Calverley Fish Shop,80 Thornhill Street,Calverley,Leeds,,LS28 5PD,,LS28 5PD,LS28 5,LS28 5PD,LS28 5,420670.0,437006.0,53.828911,-1.687444,E01011589,E02002368,E05001418,E08000035,22705.0,both,True
Littlemoor Fish and Chips,143 Littlemoor Road,Pudsey,,,LS28 8AP,,LS28 8AP,LS28 8,LS28 8AP,LS28 8,422658.0,432322.0,53.78673,-1.657583,E01011607,E02002408,E05001438,E08000035,17526.0,both,True
Baracoa Luxe Bar,52 Call Lane,Leeds,West Yorkshire,,LS1 6DT,https://www.facebook.com/BaracoaLuxeBar/info/?tab=page_info,LS1 6DT,LS1 6,LS1 6DT,LS1 6,430315.0,433324.0,53.795348,-1.541273,E01033016,E02006875,E05001420,E08000035,15050.0,both,True
The Hop,The Dark Arches,Granary Wharf,Neville Street,,LS1 4BR,http://www.thehop-leeds.co.uk/,LS1 4BR,LS1 4,LS1 4BR,LS1 4,429783.0,433129.0,53.793626,-1.549368,E01033016,E02006875,E05001420,E08000035,15050.0,both,True
Cielo Blanco,Trinity,Albion Street,Leeds,,LS1 5AT,http://www.cieloblanco.co.uk,LS1 5AT,LS1 5,LS1 5AT,LS1 5,430139.0,433460.0,53.796596,-1.543936,E01033010,E02006875,E05001420,E08000035,8358.0,both,True
Pickled Pepper,The Round Foundry,105 Water Lane,Leeds,,LS11 5WH,http://pickledpepperleeds.co.uk/,LS11 5WH,LS11 5,LS11 5WH,LS11 5,429589.0,432862.0,53.791237,-1.552338,E01033032,E02002411,E05001420,E08000035,9129.0,both,True
Crafthouse,Level 5,Trinity,Boar Lane,Leeds,LS16HW,http://www.crafthouse-restaurant.com,LS1 6HW,LS1 6,LS1 6HW,LS1 6,430129.0,433401.0,53.79605,-1.544089,E01033010,E02006875,E05001420,E08000035,8358.0,both,True
Angelica,Level 6,Trinity,Boar Lane,Leeds,LS1 6HW,http://www.angelica-restaurant.com/,LS1 6HW,LS1 6,LS1 6HW,LS1 6,430129.0,433401.0,53.79605,-1.544089,E01033010,E02006875,E05001420,E08000035,8358.0,both,True
Costa Coffee Woodhouse Lane,42/44 Woodhouse Lane,Leeds,,,LS2 8LX,http://www.costa.co.uk/,LS2 8LX,LS2 8,LS2 8LX,LS2 8,430078.0,433995.0,53.801392,-1.544805,E01033010,E02006875,E05001420,E08000035,8358.0,both,True
Alfred,6 Stonegate Road,Meanwood,Leeds,,LS6 4HY,http://northbar.com/alfred,LS6 4HY,LS6 4,LS6 4HY,LS6 4,428674.0,436990.0,53.828389,-1.565844,E01011691,E02002360,E05001442,E08000035,5120.0,both,True
Cafe Lux,Pudsey Wellbeing Centre,Robin Lane,Pudsey,,LS28 7BR,http://www.pudseywellbeingcentre.com,LS28 7BR,LS28 7,LS28 7BR,LS28 7,422431.0,433293.0,53.795467,-1.660958,E01011612,E02002408,E05001438,E08000035,7382.0,both,True
The Arch Cafe,Bradbury Building,Mark Lane,Leeds,,LS2 8JA,http://www.thearchcafeleeds.co.uk/,LS2 8JA,LS2 8,LS2 8JA,LS2 8,430198.0,433827.0,53.799558,-1.542841,E01033010,E02006875,E05001420,E08000035,8358.0,both,True
The 1875 Restaurant,1st Floor Menston Railway Station,Station Road,Leeds,,LS29 6JH,http://the1875.co.uk/,LS29 6JH,LS29 6,LS29 6JH,LS29 6,417533.0,443957.0,53.8915,-1.734709,E01010773,E02002187,E05001366,E08000032,28465.0,both,True
Out of the Woods- Granary Wharf,Granary Wharf,Waterman's Place,Leeds,,LS1 4GL,,LS1 4GL,LS1 4,LS1 4GL,LS1 4,429824.0,433120.0,53.793542,-1.548746,E01033016,E02006875,E05001420,E08000035,15050.0,both,True
LIVINitaly,Granary Wharf,Leeds,,,LS1 4BR,http://www.livinitaly.com,LS1 4BR,LS1 4,LS1 4BR,LS1 4,429783.0,433129.0,53.793626,-1.549368,E01033016,E02006875,E05001420,E08000035,15050.0,both,True
Opposite Cafe University,26 Blenheim Terrace,Leeds,,,LS2 9HD,http://www.oppositecafe.co.uk,LS2 9HD,LS2 9,LS2 9HD,LS2 9,429637.0,434678.0,53.807572,-1.55144,E01033005,E02002384,E05001429,E08000035,8229.0,both,True
Ciao Bella,20 Dock Street,Brewery Wharf,Leeds,,LS10 1JF,http://www.ciaobellarestaurantleeds.co.uk,LS10 1JF,LS10 1,LS10 1JF,LS10 1,430432.0,433140.0,53.793687,-1.539515,E01033011,E02006875,E05001420,E08000035,6996.0,both,True
Vanilla One,Corn Exchange,Leeds,,,LS1 7BR,http://www.leedscornexchange.co.uk/eating/vanilla-one,LS1 7BR,LS1 7,LS1 7BR,LS1 7,430387.0,433387.0,53.79591,-1.540174,E01033011,E02006875,E05001420,E08000035,6996.0,both,True
Jake's Bar,27 - 33 Call Lane,Leeds,,,LS1 7BT,http://www.jakesbar.co.uk,LS1 7BT,LS1 7,LS1 7BT,LS1 7,430343.0,433319.0,53.795301,-1.540848,E01033011,E02006875,E05001420,E08000035,6996.0,both,True
The Garden Gate,3 Whitfield Place,Hunslet,Leeds,,LS10 2QB,http://www.gardengateleeds.co.uk,LS10 2QB,LS10 2,LS10 2QB,LS10 2,431236.0,431702.0,53.780715,-1.527456,E01011467,E02006876,E05001420,E08000035,2126.0,both,True
Further North,194 Harrogate Road,Chapel Allerton,,,LS7 4NZ,http://northbar.com/further-north/,LS7 4NZ,LS7 4,LS7 4NZ,LS7 4,430490.0,437263.0,53.83074,-1.538228,E01011352,E02002363,E05001419,E08000035,14332.0,both,True
The Junction,44 Bondgate,Otley,,,LS21 1AD,https://www.facebook.com/Junctioninnotley,LS21 1AD,LS21 1,LS21 1AD,LS21 1,420359.0,445366.0,53.904061,-1.691617,E01011569,E02002333,E05001437,E08000035,21543.0,both,True
The Otley Tavern,Newmarket,Otley,,,LS21 3AE,http://www.theotleytavern.com,LS21 3AE,LS21 3,LS21 3AE,LS21 3,420263.0,445452.0,53.904837,-1.693072,E01011569,E02002333,E05001437,E08000035,21543.0,both,True
The Bowling Green,18 Bondgate,Otley,,,LS21 3AB,http://www.jdwetherspoon.com/pubs/all-pubs/england/west-yorkshire/the-bowling-green-otley,LS21 3AB,LS21 3,LS21 3AB,LS21 3,420282.0,445335.0,53.903785,-1.692791,E01011569,E02002333,E05001437,E08000035,21543.0,both,True
The Cross Pipes,36 Westgate,Otley,West Yorkshire,,LS21 3AS,http://www.otleypubclub.co.uk/otley-pubs-present/the-cross-pipes,LS21 3AS,LS21 3,LS21 3AS,LS21 3,420058.0,445461.0,53.904926,-1.696192,E01011569,E02002333,E05001437,E08000035,21543.0,both,True
The Rose and Crown,20 Bondgate,Otley,,,LS21 1AD,http://www.otleypubclub.co.uk/otley-pubs-present/the-rose-and-crown,LS21 1AD,LS21 1,LS21 1AD,LS21 1,420359.0,445366.0,53.904061,-1.691617,E01011569,E02002333,E05001437,E08000035,21543.0,both,True
The Old Cock,11 Crossgate,Otley,West Yorkshire,,LS21 1AD,http://www.theoldcockotley.co.uk,LS21 1AD,LS21 1,LS21 1AD,LS21 1,420359.0,445366.0,53.904061,-1.691617,E01011569,E02002333,E05001437,E08000035,21543.0,both,True
The Manor House,Walkergate,Otley,,,LS21 1HB,,LS21 1HB,LS21 1,LS21 1HB,LS21 1,420448.0,445503.0,53.905288,-1.690253,E01011574,E02002333,E05001437,E08000035,18323.0,both,True
The Black Bull,Market Place,Otley,,,LS21 3AQ,http://www.otleypubclub.co.uk/otley-pubs-present/the-black-bull,LS21 3AQ,LS21 3,LS21 3AQ,LS21 3,420204.0,445540.0,53.905631,-1.693965,E01011569,E02002333,E05001437,E08000035,21543.0,both,True
Otley Tap House,66 Boroughgate,Otley,,,LS21 1AE,,LS21 1AE,LS21 1,LS21 1AE,LS21 1,420420.0,445575.0,53.905937,-1.690675,E01011569,E02002333,E05001437,E08000035,21543.0,both,True
The Roebuck,Roebuck Terrace,Newall with Clifton,Otley,,LS21 2EY,http://www.roebuckpub.co.uk,LS21 2EY,LS21 2,LS21 2EY,LS21 2,420008.0,447595.0,53.924108,-1.696814,E01027735,E02005778,E05006270,E07000165,19767.0,both,True
The Royalty,Yorkgate,Otley Chevin,,,LS21 3DG,http://www.the-royalty.co.uk,LS21 3DG,LS21 3,LS21 3DG,LS21 3,419992.0,444043.0,53.892184,-1.697289,E01011279,E02002337,E05001425,E08000035,24945.0,both,True
The Red Lion,47 Kirkgate,Otley,,,LS21 3HN,http://www.otleypubclub.co.uk/otley-pubs-present/the-red-lion,LS21 3HN,LS21 3,LS21 3HN,LS21 3,420172.0,445490.0,53.905182,-1.694455,E01011569,E02002333,E05001437,E08000035,21543.0,both,True
the Bay Horse,20 Market Place,Otley,,,LS21 3AQ,http://www.otleypubclub.co.uk/otley-pubs-present/the-bay-horse-inn,LS21 3AQ,LS21 3,LS21 3AQ,LS21 3,420204.0,445540.0,53.905631,-1.693965,E01011569,E02002333,E05001437,E08000035,21543.0,both,True
Whitakers,49 Kirkgate,Otley,,,LS21 3HN,http://www.facebook.com/WhitakersOtley,LS21 3HN,LS21 3,LS21 3HN,LS21 3,420172.0,445490.0,53.905182,-1.694455,E01011569,E02002333,E05001437,E08000035,21543.0,both,True
The White Swan,68 Boroughgate,Otley,,,LS21 1AE,,LS21 1AE,LS21 1,LS21 1AE,LS21 1,420420.0,445575.0,53.905937,-1.690675,E01011569,E02002333,E05001437,E08000035,21543.0,both,True
North Bar Social,8-10 Bondgate,Otley,,,LS21 3AB,http://www.northbar.com/northbarsocial,LS21 3AB,LS21 3,LS21 3AB,LS21 3,420282.0,445335.0,53.903785,-1.692791,E01011569,E02002333,E05001437,E08000035,21543.0,both,True
The Black Horse Hotel,2 Westgate,Otley,,,LS21 3AS,http://www.blackhorsehotelotley.co.uk,LS21 3AS,LS21 3,LS21 3AS,LS21 3,420058.0,445461.0,53.904926,-1.696192,E01011569,E02002333,E05001437,E08000035,21543.0,both,True
The Horse and Farrier,Bridge Street,Otley,West Yorkshire,,LS21 1BQ,http://www.markettowntaverns.co.uk/pub-and-bar-finder/yorkshire/horse-and-farrier,LS21 1BQ,LS21 1,LS21 1BQ,LS21 1,420217.0,445677.0,53.906876,-1.693762,E01011569,E02002333,E05001437,E08000035,21543.0,both,True
The Yew Tree Public House,Newall Carr Rd,Otley,,,LS21 2AU,http://www.yewtreeotley.co.uk,LS21 2AU,LS21 2,LS21 2AU,LS21 2,419975.0,446234.0,53.911877,-1.697405,E01011583,E02002332,E05001437,E08000035,26750.0,both,True
